{"type":"FeatureCollection","features":[{"type":"Feature","properties":{"name":"FNB","amenity":"atm","brand":"FNB","brand:wikidata":"Q3072956","check_date":"2023-06-02","official_name":"First National Bank","operator":"FNB","operator:wikidata":"Q3072956"},"geometry":{"type":"Point","coordinates":[17.0776127,-22.5654135]}},{"type":"Feature","properties":{"name":"Tilla's Guesthouse","addr:city":"Windhoek","addr:housenumber":"9","addr:street":"Strauss Street","check_date":"2023-06-17","tourism":"guest_house"},"geometry":{"type":"Point","coordinates":[17.0724655,-22.565092]}},{"type":"Feature","properties":{"name":"ZZZ Guesthouse","addr:city":"Windhoek","addr:housenumber":"27","addr:street":"Beethoven Street","check_date":"2024-04-28","email":"zzzguesthouse@gmail.com","internet_access":"yes","internet_access:fee":"no","rooms":"6","tourism":"guest_house"},"geometry":{"type":"Point","coordinates":[17.0723468,-22.5656105]}},{"type":"Feature","properties":{"name":"NUST","bus":"yes","highway":"bus_stop","public_transport":"platform"},"geometry":{"type":"Point","coordinates":[17.0778911,-22.5641219]}},{"type":"Feature","properties":{"name":"NUST","bus":"yes","highway":"bus_stop","public_transport":"platform"},"geometry":{"type":"Point","coordinates":[17.0776551,-22.5641095]}},{"type":"Feature","properties":{"name":"FabLab Namibia","addr:street":"Haydn Street","check_date":"2024-04-28","leisure":"hackerspace","phone":"0612072390"},"geometry":{"type":"Point","coordinates":[17.0751327,-22.5664003]}},{"type":"Feature","properties":{"barrier":"gate"},"geometry":{"type":"Point","coordinates":[17.0758549,-22.5659647]}},{"type":"Feature","properties":{"entrance":"yes"},"geometry":{"type":"Point","coordinates":[17.0755678,-22.565413]}},{"type":"Feature","properties":{"entrance":"yes"},"geometry":{"type":"Point","coordinates":[17.0769405,-22.5644646]}},{"type":"Feature","properties":{"name":"National Institute of Technology (NIT)","addr:city":"Windhoek","addr:street":"Johann Albrecht Street","amenity":"college","website":"https://nit-edu.org/what-is-nit/"},"geometry":{"type":"Point","coordinates":[17.077083,-22.5644118]}},{"type":"Feature","properties":{"entrance":"yes"},"geometry":{"type":"Point","coordinates":[17.0732577,-22.5665866]}},{"type":"Feature","properties":{"access":"permissive","entrance":"yes"},"geometry":{"type":"Point","coordinates":[17.0732962,-22.5665691]}},{"type":"Feature","properties":{"name":"Madillu","amenity":"fast_food","check_date":"2024-04-28","internet_access":"no","payment:cards":"no","payment:credit_cards":"no","payment:debit_cards":"no","wheelchair":"no"},"geometry":{"type":"Point","coordinates":[17.0761176,-22.5664031]}},{"type":"Feature","properties":{"name":"Aloe Restaurant & Training Kitchen","amenity":"restaurant","check_date":"2024-04-28","diet:meat":"yes","email":"hotel@nust.na","opening_hours":"Mo-Fri 07:00-09:00, 12:30-14:30, 18:00-21:00; Sa 08:00-10:00, 12:30-14:30, 18:00-21:00","phone":"+264 61 207 2204","website":"https://hotelschool.nust.na/index.php/sample-page/"},"geometry":{"type":"Point","coordinates":[17.0722131,-22.5664756]}},{"type":"Feature","properties":{"name":"Friedrich Ebert Stiftung (FES)","check_date":"2024-04-10","office":"ngo"},"geometry":{"type":"Point","coordinates":[17.0736826,-22.564037]}},{"type":"Feature","properties":{"name":"TaTe","check_date":"2024-04-10","tourism":"hostel"},"geometry":{"type":"Point","coordinates":[17.0709177,-22.5650317]}},{"type":"Feature","properties":{"entrance":"yes"},"geometry":{"type":"Point","coordinates":[17.0784085,-22.5673895]}},{"type":"Feature","properties":{"name":"Namibia Organic Association (NOA)","addr:city":"Windhoek","addr:street":"Mozart Street","check_date":"2025-04-12","email":"info@noa.org.na","office":"ngo","phone":"+264 61 248345","website":"https://noa.org.na/"},"geometry":{"type":"Point","coordinates":[17.0786671,-22.5671681]}},{"type":"Feature","properties":{"name":"WIAN","addr:city":"Windhoek","addr:housenumber":"13","addr:street":"Jackson Kaujeua Street","office":"ngo","operator":"Women in Agriculture Namibia","website":"https://womeninagriculturenamibia.com"},"geometry":{"type":"Point","coordinates":[17.0773805,-22.5660977]}},{"type":"Feature","properties":{"name":"Cooperative Education Unit","office":"educational_institution"},"geometry":{"type":"Point","coordinates":[17.075587,-22.5667453]}},{"type":"Feature","properties":{"name":"Namibia Nature Foundation (NNF)","check_date":"2025-04-12","office":"ngo","opening_hours":"Mo-Fr 08:00-17:00"},"geometry":{"type":"Point","coordinates":[17.0784756,-22.5672848]}},{"type":"Feature","properties":{"name":"Hanns Seidel Foundation (HSF)","check_date":"2025-10-01","email":"office@hsf.org.na","name:de":"Hanns-Seidel-Stiftung","name:es":"Fundación Hanns Seidel","office":"ngo","phone":"+264 61 23 73 734","website":"www.namibia.hss.de"},"geometry":{"type":"Point","coordinates":[17.0780363,-22.5640556]}},{"type":"Feature","properties":{"name":"Ombili Mental Health","addr:housenumber":"68","addr:street":"Frans Indongo Street","check_date":"2025-08-06","healthcare":"psychotherapist"},"geometry":{"type":"Point","coordinates":[17.0781049,-22.5643001]}}]}